City_ID,City,Lat,Lng,Max Temp,Humidity,Cloudiness,Wind Speed,Country,Date
0,tralee,52.2704,-9.7026,48.36,96,100,2.89,IE,1737317021
1,holualoa,19.6228,-155.9522,75.04,66,0,3.44,US,1737317022
2,amahai,-3.3333,128.9167,79.18,82,70,3.71,ID,1737317023
3,papatowai,-46.5619,169.4708,58.62,55,35,2.46,NZ,1737317024
4,whitehorse,60.7161,-135.0538,19.02,85,75,23.02,CA,1737316965
5,avarua,-21.2078,-159.775,82.45,83,75,8.05,CK,1737317026
6,iskateley,67.6803,53.1512,-10.46,89,100,8.5,RU,1737317028
7,atafu village,-8.5421,-172.5159,82.76,74,59,16.2,TK,1737317029
8,kiunga,-6.1219,141.2906,73.92,100,100,1.59,PG,1737317030
9,grytviken,-54.2811,-36.5092,37.49,72,57,24.16,GS,1737317031
10,port-aux-francais,-49.35,70.2167,45.16,87,98,28.01,TF,1737317032
11,buala,-8.145,159.5921,81.27,82,99,3.31,SB,1737317034
12,georgetown,5.4112,100.3354,80.53,73,20,4.61,MY,1737316894
13,puerto natales,-51.7236,-72.4875,61.25,44,75,19.57,CL,1737317036
14,bredasdorp,-34.5322,20.0403,65.88,77,0,8.01,ZA,1737317037
15,chivhu,-19.0211,30.8922,65.75,93,100,6.69,ZW,1737317038
16,nar'yan-mar,67.6713,53.087,-10.25,89,100,8.55,RU,1737317039
17,waitangi,-43.9535,-176.5597,59.83,87,69,7.0,NZ,1737317040
18,san jose,37.3394,-121.895,58.1,70,0,5.75,US,1737316775
19,puerto ayora,-0.7393,-90.3518,80.55,87,39,8.99,EC,1737317042
20,nago,26.5881,127.9761,63.36,80,98,13.2,JP,1737317004
21,bethel,41.3712,-73.414,36.9,80,100,6.91,US,1737317044
22,invercargill,-46.4,168.35,56.01,82,96,1.01,NZ,1737317045
23,bilibino,68.0546,166.4372,-23.58,99,100,4.18,RU,1737317047
24,lashio,22.9333,97.75,49.82,75,0,1.36,MM,1737317048
25,kuanda,56.3161,116.0806,-13.31,99,99,1.45,RU,1737317049
26,geraldton,-28.7667,114.6,73.81,88,53,8.05,AU,1737317050
27,san martin,-33.081,-68.4681,87.08,15,0,12.01,AR,1737317051
28,uturoa,-16.7333,-151.4333,81.82,72,97,15.52,PF,1737317052
29,adamstown,-25.066,-130.1015,76.84,84,86,5.97,PN,1737317053
30,kankan,10.3854,-9.3057,78.69,18,6,4.74,GN,1737317054
31,saipan,15.1355,145.701,81.3,78,40,12.66,MP,1737317055
32,chilaw,7.5758,79.7953,76.3,86,98,18.52,LK,1737317056
33,tamandare,-8.7597,-35.1047,81.05,73,100,9.42,BR,1737317058
34,dhuusamarreeb,5.535,46.3861,71.06,71,40,17.58,SO,1737317059
35,axim,4.8699,-2.2405,80.82,83,47,9.86,GH,1737317060
36,shangzhi,45.2167,127.9667,-7.46,100,100,1.97,CN,1737317061
37,camocim,-2.9022,-40.8411,78.42,81,100,5.06,BR,1737317031
38,bechar,31.6167,-2.2167,48.54,46,11,2.8,DZ,1737317063
39,jamestown,42.097,-79.2353,23.02,75,100,5.75,US,1737316960
40,sitka,57.0531,-135.33,40.89,81,100,6.91,US,1737317065
41,usogorsk,63.4106,48.6872,8.53,97,98,4.52,RU,1737317066
42,turtas,58.9417,69.1325,18.79,92,100,12.41,RU,1737317067
43,kapuskasing,49.4169,-82.4331,-12.91,64,20,6.91,CA,1737317068
44,blackmans bay,-43.0167,147.3167,59.52,90,100,1.01,AU,1737317069
45,laguna,38.421,-121.4238,54.23,67,0,1.01,US,1737317004
46,iqaluit,63.7506,-68.5145,2.93,84,100,3.44,CA,1737317072
47,ust'-ilimsk,58.0006,102.6619,14.86,90,100,10.6,RU,1737317073
48,hermanus,-34.4187,19.2345,65.8,82,0,13.31,ZA,1737317074
49,edinburgh of the seven seas,-37.0676,-12.3116,60.31,65,100,7.83,SH,1737317075
50,vorgashor,67.5833,63.95,-18.08,94,69,7.87,RU,1737317077
51,weihai,37.5017,122.1136,35.74,63,0,16.46,CN,1737317078
52,luanda,-8.8368,13.2343,78.8,83,0,9.22,AO,1737317079
53,lihue,21.9789,-159.3672,75.74,64,100,16.11,US,1737317080
54,albany,42.6001,-73.9662,29.05,76,100,1.99,US,1737316948
55,kavaratti,10.5669,72.642,81.75,73,100,4.9,IN,1737317083
56,longyearbyen,78.2186,15.6401,3.04,55,75,13.8,SJ,1737317084
57,ancud,-41.8697,-73.8203,61.79,68,100,7.31,CL,1737316951
58,galle,6.0367,80.217,80.92,86,99,6.67,LK,1737317086
59,wailua homesteads,22.0669,-159.378,75.13,70,100,16.11,US,1737317087
60,arnprior,45.4334,-76.3494,15.62,63,100,7.54,CA,1737316805
61,lata,40.1629,-8.3327,52.48,77,100,6.08,PT,1737317089
62,kalmunai,7.4167,81.8167,75.38,90,100,7.9,LK,1737317090
63,kodiak,57.79,-152.4072,35.11,100,100,4.61,US,1737317091
64,punta arenas,-53.15,-70.9167,57.31,54,75,26.46,CL,1737317092
65,haiku-pauwela,20.9219,-156.3051,76.23,71,20,18.41,US,1737317093
66,new norfolk,-42.7826,147.0587,60.71,78,100,1.14,AU,1737317094
67,andergrove,-21.0833,149.1833,77.45,79,99,7.67,AU,1737317096
68,nieves,15.3274,120.9485,72.45,91,43,2.95,PH,1737317097
69,udachny,66.4167,112.4,-1.26,94,100,14.9,RU,1737317098
70,xaltianguis,17.0667,-99.8333,82.0,51,0,7.23,MX,1737317099
71,aykhal,66.0,111.5,-0.42,93,100,18.68,RU,1737317100
72,hawaiian paradise park,19.5933,-154.9731,78.31,71,75,8.05,US,1737317101
73,kasama,-10.2129,31.1808,63.52,93,100,2.51,ZM,1737317102
74,tiksi,71.6872,128.8694,-27.02,99,78,3.49,RU,1737317104
75,waingapu,-9.6567,120.2641,78.48,90,100,2.06,ID,1737317105
76,oratorio,14.2281,-90.1758,83.75,42,100,8.61,GT,1737317106
77,hammerfest,70.6634,23.6821,19.85,58,75,19.57,NO,1737317107
78,serhiyivka,46.0272,30.3768,38.59,67,4,10.74,UA,1737317108
79,west island,-12.1568,96.8225,80.58,74,20,11.5,CC,1737317109
80,nemuro,43.3236,145.575,36.73,92,52,10.49,JP,1737317111
81,kamloops,50.6665,-120.3192,31.75,77,62,3.15,CA,1737317112
82,bhadra,29.1167,75.1667,60.76,48,54,6.89,IN,1737317113
83,yellowknife,62.456,-114.3525,-19.59,85,0,5.75,CA,1737316987
84,nadym,65.5333,72.5167,-4.09,98,100,18.97,RU,1737317115
85,st. paul,44.9444,-93.0933,-0.53,56,0,9.22,US,1737316862
86,metlili chaamba,32.2667,3.6333,50.94,50,0,5.75,DZ,1737317117
87,chui,-33.6971,-53.4616,73.18,73,100,18.68,UY,1737317118
88,fort st. john,56.2499,-120.8529,1.29,85,20,8.05,CA,1737317119
89,roma,43.2128,-75.4557,21.38,66,100,10.36,US,1737316936
90,pangoa,-12.1167,-73.0,86.56,54,75,4.74,PE,1737317122
91,tsiombe,-25.3,45.4833,78.3,83,73,9.31,MG,1737317123
92,baotou,40.6522,109.8222,20.88,55,0,1.25,CN,1737317124
93,kem',64.9555,34.5793,28.99,87,99,15.95,RU,1737317126
94,princesa isabel,-7.7367,-37.9933,77.02,75,100,1.86,BR,1737317127
95,zarghun shahr,32.8473,68.4457,30.49,99,100,6.69,AF,1737317128
96,flin flon,54.7682,-101.865,-22.16,63,40,18.41,CA,1737317129
97,aripuana,-9.1667,-60.6333,75.94,97,100,1.88,BR,1737317130
98,ushuaia,-54.8,-68.3,56.86,51,40,26.46,AR,1737317131
99,nuuk,64.1835,-51.7216,34.41,55,100,32.21,GL,1737317132
100,tolanaro,-25.0319,46.9987,80.67,78,20,16.11,MG,1737317133
101,petropavlovsk-kamchatsky,53.0452,158.6483,5.59,66,75,11.18,RU,1737317134
102,lompoc,34.6391,-120.4579,55.29,70,20,10.36,US,1737317135
103,adrar,20.5022,-10.0711,64.51,34,0,9.46,MR,1737317136
104,rouissat,31.9243,5.3502,53.91,54,0,3.15,DZ,1737317139
105,carlow,52.8408,-6.9261,46.98,92,100,6.53,IE,1737317140
106,okha,53.5739,142.9478,-1.46,90,50,11.39,RU,1737317141
107,rusera,25.75,86.0333,52.21,47,0,6.98,IN,1737317142
108,kasongo,-4.45,26.6667,68.58,97,100,3.27,CD,1737317143
109,qaqortoq,60.7167,-46.0333,22.89,84,100,6.2,GL,1737317144
110,extrema,-22.8547,-46.3183,76.33,85,98,3.58,BR,1737316897
111,caleta de carquin,-11.0925,-77.6267,74.52,73,90,10.27,PE,1737317146
112,toba tek singh,30.9743,72.4827,52.29,30,9,4.92,PK,1737317147
113,parang,7.3704,124.2697,73.9,95,47,3.13,PH,1737317150
114,tura,25.5198,90.2201,55.78,59,0,2.8,IN,1737317151
115,roswell,34.0232,-84.3616,38.5,81,100,14.97,US,1737316869
116,ash shatrah,31.4117,46.1742,53.8,36,0,7.38,IQ,1737317153
117,sao vicente,-23.9631,-46.3919,85.96,26,0,8.05,BR,1737316930
118,okhotsk,59.3833,143.3,-18.13,84,1,8.97,RU,1737317155
119,afaahiti,-17.75,-149.2833,79.23,74,53,15.19,PF,1737317156
120,talara,-4.5772,-81.2719,84.96,51,0,18.41,PE,1737317159
121,fort bragg,35.139,-79.006,57.81,92,100,8.05,US,1737317162
122,santa ana de yacuma,-13.75,-65.4333,78.75,89,75,0.0,BO,1737317163
123,isola di capo rizzuto,38.96,17.0933,55.49,78,100,1.05,IT,1737317164
124,cadale,2.7603,46.3222,75.85,78,96,20.71,SO,1737317165
125,gilgit,35.9221,74.3087,30.87,89,99,1.48,PK,1737317166
126,abepura,-2.6333,140.5833,76.01,94,20,2.3,ID,1737317167
127,margaret river,-33.95,115.0667,68.45,62,0,6.55,AU,1737317168
128,palopo,-2.9996,120.1921,76.28,85,100,2.55,ID,1737317169
129,bodaybo,57.8506,114.1933,6.44,95,100,4.94,RU,1737317170
130,dapa,9.7594,126.0531,79.2,82,67,3.58,PH,1737317172
131,flying fish cove,-10.4217,105.6791,74.88,94,100,11.5,CX,1737317173
132,nizhnedevitsk,51.5419,38.3657,29.3,91,8,10.13,RU,1737317175
133,evinayong,1.4368,10.5512,68.25,95,78,2.86,GQ,1737317176
134,kerikeri,-35.2268,173.9474,65.91,95,100,10.0,NZ,1737317177
135,lianjiang,21.6467,110.2817,57.51,67,3,3.62,CN,1737317178
136,tabriz,38.08,46.2919,33.26,64,75,11.5,IR,1737316932
137,rebrikha,53.0733,82.3408,20.12,94,93,11.05,RU,1737317182
138,bel ombre,-4.6167,55.4167,80.44,100,40,2.3,SC,1737317183
139,suva,-18.1416,178.4415,81.88,89,40,2.3,FJ,1737317185
140,cedeira,43.6797,-8.0209,48.97,100,100,14.43,ES,1737317186
141,enewetak,11.3474,162.3373,80.38,80,43,24.23,MH,1737317187
142,east london,-33.0153,27.9116,73.8,85,100,11.05,ZA,1737317188
143,barah,13.7,30.3667,76.35,25,10,11.83,SD,1737317189
144,dourdan,48.5277,2.0111,32.65,92,8,2.19,FR,1737317190
145,thompson,55.7435,-97.8558,-25.44,62,75,8.05,CA,1737317191
146,mukalla,14.5425,49.1242,69.89,76,79,3.91,YE,1737316993
147,alappuzha,9.49,76.3264,76.5,86,80,4.92,IN,1737317194
148,alotau,-10.3069,150.4462,77.94,90,14,5.06,PG,1737317196
149,vadso,70.0744,29.7487,15.96,73,20,28.77,NO,1737317197
150,sandnessjoen,66.0217,12.6316,33.91,60,40,11.5,NO,1737317198
151,gadzhiyevo,69.2551,33.3362,20.41,63,74,35.81,RU,1737317199
152,isangel,-19.55,169.2667,81.32,74,98,7.78,VU,1737317200
153,papao,-17.75,-149.55,85.68,70,25,16.26,PF,1737317201
154,ostersund,63.1792,14.6357,36.05,82,75,5.75,SE,1737317202
155,codrington,-38.2667,141.9667,65.01,82,100,3.27,AU,1737317203
156,shalkar,47.8288,59.6258,26.74,98,100,7.16,KZ,1737317204
157,dolores,-36.3132,-57.6792,78.28,39,100,17.49,AR,1737316982
158,colares,38.7992,-9.4469,57.33,79,100,22.1,PT,1737317206
159,hithadhoo,-0.6,73.0833,82.47,76,23,14.72,MV,1737317207
160,batesville,35.7698,-91.641,28.81,38,0,11.5,US,1737317208
161,colonia,50.9333,6.95,30.45,92,100,3.44,DE,1737317109
162,greymouth,-42.4667,171.2,62.91,61,0,4.92,NZ,1737317211
163,youkounkoun,12.5333,-13.1333,81.99,15,16,5.64,GN,1737317212
164,cifteler,39.3831,31.0392,38.44,68,0,8.59,TR,1737317213
165,caribou,46.8606,-68.012,24.98,84,75,11.5,US,1737317214
166,naze,28.3667,129.4833,58.12,81,88,8.57,JP,1737317014
167,camana,-16.6228,-72.7111,73.9,71,7,8.43,PE,1737317216
168,aldinga beach,-35.2793,138.4604,74.08,58,100,7.49,AU,1737317217
169,nizhneangarsk,55.7833,109.55,9.52,80,100,2.82,RU,1737317219
170,la ronge,55.1001,-105.2842,-13.5,81,75,13.09,CA,1737317220
171,zapolyarnyy,69.4154,30.8136,14.88,65,80,27.29,RU,1737317221
172,stanley,54.868,-1.6985,32.02,90,75,3.44,GB,1737317222
173,hasaki,35.7333,140.8333,47.64,84,92,8.88,JP,1737317223
174,muriti,-1.9833,32.9167,73.63,72,53,10.33,TZ,1737317224
175,utrik,11.2278,169.8474,79.7,79,55,21.7,MH,1737317225
176,kosong,38.3788,128.4676,34.05,74,0,6.6,KR,1737317226
177,roses,42.262,3.1769,47.41,83,100,4.79,ES,1737317227
178,olonkinbyen,70.9221,-8.7187,16.03,58,100,15.41,SJ,1737317228
179,swift current,50.2834,-107.8014,-15.79,76,100,21.85,CA,1737317151
180,sumbawa besar,-8.5,117.4333,75.36,98,100,1.36,ID,1737317231
181,hadibu,12.65,54.0333,72.34,72,97,10.0,YE,1737317232
182,waddan,29.1614,16.139,59.85,60,48,8.1,LY,1737317233
183,murzuq,25.9155,13.9184,64.45,27,100,3.62,LY,1737317234
184,hobyo,5.3505,48.5268,75.0,76,93,18.01,SO,1737317235
185,antsiranana,-12.2787,49.2917,75.76,90,10,4.29,MG,1737317236
186,thunder bay,48.4001,-89.3168,-13.02,48,75,10.36,CA,1737317135
187,college,64.8569,-147.8028,23.45,80,100,0.0,US,1737317238
188,reyes,-14.3167,-67.3833,95.31,41,100,2.89,BO,1737317240
189,cova figueira,14.8905,-24.2934,61.93,69,100,8.32,CV,1737317242
190,zakamensk,50.3741,103.2863,-2.97,97,40,3.04,RU,1737317243
191,mirpur sakro,24.5474,67.6277,62.96,24,0,9.08,PK,1737317244
192,at-bashi,41.1702,75.8106,8.71,74,97,2.64,KG,1737317245
193,gutao,37.2025,112.1781,30.85,36,0,4.27,CN,1737317246
194,bouza,14.4229,6.0428,78.76,19,26,5.3,NE,1737317247
195,petropavl,54.8753,69.1628,16.63,94,96,12.62,KZ,1737317036
196,st. john's,47.5649,-52.7093,38.97,89,73,13.0,CA,1737317250
197,cambridge,43.3601,-80.3127,21.78,64,100,2.3,CA,1737317146
198,ribeira grande,38.5167,-28.7,61.2,72,40,34.52,PT,1737317252
199,isafjordur,66.0755,-23.124,28.36,94,100,39.37,IS,1737317253
200,namibe,-15.1961,12.1522,70.43,75,99,8.57,AO,1737317254
201,badger,64.8,-147.5333,28.13,84,40,0.0,US,1737317255
202,bengkulu,-3.8004,102.2655,75.54,94,100,9.86,ID,1737317034
203,al wajh,26.2455,36.4525,66.15,45,0,5.75,SA,1737317257
204,hami,42.8,93.45,21.15,52,72,3.22,CN,1737317258
205,mogocha,53.7333,119.7667,3.36,98,100,1.57,RU,1737317259
206,nikolayevsk-on-amure,53.1406,140.73,-7.08,100,92,3.91,RU,1737317260
207,constantia,44.1833,28.65,36.7,70,0,9.44,RO,1737317262
208,northam,51.0333,-4.2167,39.79,91,100,1.99,GB,1737317263
209,al burayqah,30.4062,19.5739,62.82,49,100,9.44,LY,1737317264
210,toamasina,-18.1667,49.3833,78.26,85,91,7.14,MG,1737317265
211,huayin,34.5675,110.0921,43.93,29,100,3.44,CN,1737317266
212,palikir - national government center,6.9248,158.1611,81.34,74,100,6.91,FM,1737317267
213,kimbe,-5.5502,150.1429,76.05,92,63,2.42,PG,1737317268
214,belyy yar,53.6039,91.3903,26.49,63,0,15.66,RU,1737317269
215,berezovyy,51.6667,135.7,-4.18,96,13,4.68,RU,1737317270
216,inhambane,-23.865,35.3833,80.6,82,20,10.76,MZ,1737317273
217,rongelap,11.1635,166.8941,80.22,79,73,22.46,MH,1737317275
218,patacamaya,-17.2333,-67.9167,53.28,66,100,8.99,BO,1737317276
219,oranjemund,-28.55,16.4333,62.29,89,0,9.91,NA,1737317277
220,portland,45.5234,-122.6762,43.09,71,1,4.0,US,1737317020
221,puerto lempira,15.2667,-83.7667,84.47,62,66,10.63,HN,1737317279
222,cambe,-23.2758,-51.2783,86.68,66,40,3.44,BR,1737317281
223,port lincoln,-34.7333,135.8667,68.61,80,100,11.01,AU,1737317282
224,tarija,-21.5355,-64.7296,78.71,53,40,9.22,BO,1737317198
225,susuman,62.7833,148.1667,-51.36,100,90,0.31,RU,1737317284
226,sao felix do xingu,-6.6447,-51.995,76.73,97,100,1.25,BR,1737317285
227,kodinsk,58.6881,99.1844,14.54,90,100,9.33,RU,1737317176
228,coahuayana de hidalgo,18.7,-103.6583,86.52,49,2,7.4,MX,1737317287
229,port mathurin,-19.6833,63.4167,79.77,74,17,17.43,MU,1737317289
230,george town,5.4112,100.3354,80.53,69,20,4.61,MY,1737317290
231,klyuchi,52.2667,79.1667,19.04,92,94,9.19,RU,1737317291
232,kirensk,57.7853,108.1119,14.68,92,100,12.03,RU,1737317292
233,kone,-21.0595,164.8658,75.81,91,100,4.09,NC,1737317293
234,konstantinovka,49.6167,127.9833,-18.56,100,32,3.65,RU,1737317295
235,talnakh,69.4865,88.3972,-41.8,100,89,3.76,RU,1737317296
236,kursk,51.7303,36.1939,28.6,86,6,8.95,RU,1737317298
237,broken hill,-31.95,141.4333,76.87,29,57,9.95,AU,1737317299
238,barcelos,41.5388,-8.6151,48.54,92,100,7.47,PT,1737317050
239,weston,26.1004,-80.3998,86.0,70,1,7.0,US,1737317301
240,saint-pierre,-21.3393,55.4781,80.28,69,0,4.61,RE,1737317302
241,puerto santa,-8.9906,-78.6456,72.55,76,68,12.41,PE,1737317303
242,fortaleza,-3.7227,-38.5247,80.73,83,75,3.44,BR,1737317068
243,swakopmund,-22.6833,14.5333,62.98,84,11,7.0,NA,1737317305
244,great bend,38.3645,-98.7648,20.03,50,97,1.01,US,1737317306
245,korla,41.7597,86.1469,17.28,77,100,5.79,CN,1737317307
246,tibanbang,6.6315,126.1055,79.74,81,85,2.35,PH,1737317309
247,cabo san lucas,22.8909,-109.9124,71.76,51,40,5.01,MX,1737317310
248,hidrolandia,-4.4081,-40.4378,78.15,86,99,2.37,BR,1737317311
249,bereznik,62.8551,42.7072,28.36,94,100,7.85,RU,1737317312
250,mil'kovo,55.6078,37.7956,30.63,47,65,10.18,RU,1737317313
251,palembang,-2.9167,104.7458,77.09,94,40,5.75,ID,1737317315
252,aasiaat,68.7098,-52.8699,20.39,72,100,13.06,GL,1737317316
253,norfolk,42.1668,-71.2495,43.63,74,100,1.01,US,1737317317
254,goure,13.9835,10.2704,75.74,15,36,8.14,NE,1737317318
255,gizo,-8.103,156.8419,83.44,77,100,8.43,SB,1737317319
256,pisco,-13.7,-76.2167,77.05,65,31,23.02,PE,1737317043
257,ust'-kut,56.7938,105.7672,14.88,89,100,8.81,RU,1737317322
258,embarcacion,-23.209,-64.096,85.21,58,60,9.22,AR,1737317323
259,severo-yeniseyskiy,60.3725,93.0408,5.95,90,100,11.99,RU,1737317324
260,bairnsdale,-37.8333,147.6167,55.06,97,14,1.63,AU,1737317309
261,port saint john's,-31.6229,29.5448,77.43,93,98,7.25,ZA,1737317326
262,fale old settlement,-9.3852,-171.2468,82.9,74,100,17.27,TK,1737317327
263,xinqing,48.2333,129.5,-19.5,100,95,0.72,CN,1737317328
264,lebu,-37.6167,-73.65,61.84,71,100,15.7,CL,1737317165
265,callao,-12.0667,-77.15,71.89,78,0,4.61,PE,1737317332
266,newman,37.3138,-121.0208,54.05,65,4,1.99,US,1737317333
267,nacogdoches,31.6002,-94.6335,40.05,28,0,12.66,US,1737317335
268,kudahuvadhoo,2.6708,72.8944,81.48,75,100,9.35,MV,1737317337
269,ciudad bolivar,8.1222,-63.5497,96.49,23,1,11.99,VE,1737317338
270,salalah,17.0151,54.0924,69.89,56,0,5.75,OM,1737317339
271,sol'-iletsk,51.1631,54.9918,21.0,98,100,4.14,RU,1737317340
272,ipil,7.75,122.5167,74.64,93,98,3.56,PH,1737317341
273,novyy urengoy,66.0833,76.6333,-9.8,98,100,13.31,RU,1737317342
274,san patricio,28.017,-97.5169,48.15,24,0,16.69,US,1737317343
275,ad dilam,23.9915,47.1627,58.64,31,86,8.28,SA,1737317184
276,gaspra,44.4333,34.1,33.51,75,4,5.46,UA,1737317346
277,santa ana,33.7456,-117.8678,60.24,71,75,3.44,US,1737317347
278,ilulissat,69.2167,-51.1,23.02,54,75,24.16,GL,1737317348
279,villa gesell,-37.2639,-56.973,69.58,71,100,17.43,AR,1737317349
280,tyup,42.7276,78.3648,17.47,72,86,6.26,KG,1737317350
281,baissa,7.2333,10.6333,82.62,32,12,1.66,NG,1737317351
282,coquimbo,-29.9533,-71.3436,68.99,59,75,9.22,CL,1737317184
283,labytnangi,66.6572,66.4183,-7.1,85,100,17.78,RU,1737317353
284,boguchany,58.3814,97.4531,14.58,91,100,8.95,RU,1737317354
285,touros,-5.1989,-35.4608,81.79,71,81,9.1,BR,1737317292
286,diffa,13.3154,12.6113,77.36,19,22,6.24,NE,1737317357
287,shalqar,47.8333,59.6,26.55,98,100,7.25,KZ,1737317358
288,broome,42.2506,-75.833,22.53,71,100,9.22,US,1737317359
289,live oak,36.9836,-121.9805,58.37,83,0,5.99,US,1737317360
290,mount isa,-20.7333,139.5,69.57,52,35,0.0,AU,1737317361
291,shingu,33.7333,135.9833,47.55,90,97,4.9,JP,1737317362
292,katabu,-4.9333,122.5167,75.88,94,100,0.85,ID,1737317363
293,klamath falls,42.2249,-121.7817,41.86,67,0,3.0,US,1737317236
294,floro,61.5996,5.0328,33.76,93,0,0.0,NO,1737317365
295,bohain-en-vermandois,49.9873,3.453,31.23,90,6,2.04,FR,1737317366
296,san borja,-14.8167,-66.85,90.57,58,100,4.03,BO,1737317368
297,mykolayiv,46.9659,31.9974,33.22,77,0,6.71,UA,1737317122
298,krasne,49.9145,24.6134,29.55,95,11,3.69,UA,1737317370
299,savanna-la-mar,18.219,-78.1332,84.92,62,38,6.55,JM,1737317371
300,barra de santo antonio,-9.4047,-35.5072,80.91,75,80,12.21,BR,1737317373
301,rice lake,45.5061,-91.7382,-3.68,49,0,8.05,US,1737317118
302,south venice,27.0531,-82.4243,69.01,88,93,1.99,US,1737317375
303,arar,30.9753,41.0381,46.42,36,0,4.61,SA,1737317376
304,kuhmo,64.1333,29.5167,26.4,85,95,13.91,FI,1737317377
305,terenozek,45.05,64.9833,34.72,82,100,8.01,KZ,1737317378
306,saldanha,-33.0117,17.9442,64.83,86,0,7.4,ZA,1737317379
307,chichicastenango,14.9333,-91.1167,73.09,30,13,6.64,GT,1737317380
308,stephenville,32.2207,-98.2023,35.26,28,0,11.5,US,1737317381
309,castillo,19.2082,-70.0273,82.9,61,47,5.88,DO,1737317382
310,vilyuchinsk,52.9306,158.4028,7.07,86,100,6.98,RU,1737317383
311,kitimat,54.0524,-128.6534,33.91,76,81,1.01,CA,1737317384
312,auki,-8.7676,160.7034,77.63,88,100,3.27,SB,1737317385
313,maksatikha,57.797,35.8825,31.91,83,14,12.48,RU,1737317388
314,chimoio,-19.1164,33.4833,70.09,96,100,0.85,MZ,1737317389
315,alofi,-19.0595,-169.9187,82.29,89,75,4.61,NU,1737317390
316,sal rei,16.1833,-22.9167,71.69,64,80,16.28,CV,1737317391
317,tsurusaki,33.24,131.6844,41.72,82,0,5.26,JP,1737317392
318,solan,30.9167,77.1167,52.09,36,100,3.65,IN,1737317393
319,saint-francois,46.4154,3.9054,26.65,100,100,5.75,FR,1737317394
320,prainha,-1.8,-53.48,79.23,70,100,3.78,BR,1737317395
321,thinadhoo,0.5333,72.9333,82.0,77,97,12.19,MV,1737317396
322,hamilton,39.1834,-84.5333,27.25,78,100,20.71,US,1737317104
323,beaufort west,-32.3567,22.583,76.96,45,0,13.98,ZA,1737317398
324,island harbour,50.724,-1.2758,38.98,80,100,5.37,GB,1737317399
325,ovalle,-30.5983,-71.2003,83.71,30,1,11.43,CL,1737317401
326,khromtau,50.2503,58.4347,14.07,100,98,6.4,KZ,1737317402
327,westport,41.1415,-73.3579,38.26,81,100,4.61,US,1737317273
328,lekki,6.3607,4.8333,79.79,82,98,5.82,NG,1737317404
329,miles city,46.4083,-105.8406,2.08,68,2,8.88,US,1737317405
330,yangiobod,41.1192,70.0941,28.51,71,100,7.27,UZ,1737317407
331,yangambi,0.8102,24.4336,73.22,76,98,2.04,CD,1737317408
332,bereeda,11.8704,51.0579,72.79,71,100,8.79,SO,1737317409
333,san antonio de pale,-1.4014,5.6325,80.65,76,98,7.47,GQ,1737317410
334,bosaso,11.2842,49.1816,71.92,75,100,5.82,SO,1737317381
335,cockburn town,21.4612,-71.1419,77.95,86,0,19.46,TC,1737317167
336,anadyr,64.75,177.4833,-7.01,76,100,11.18,RU,1737317414
337,launceston,-41.45,147.1667,55.04,87,100,4.61,AU,1737317415
338,dudinka,69.4058,86.1778,-46.86,100,52,5.37,RU,1737317416
339,weno,7.4515,151.8468,82.67,79,22,18.88,FM,1737317417
340,porto franco,-6.3383,-47.3992,80.76,84,96,2.8,BR,1737317419
341,shakiso,5.75,38.9167,59.02,26,87,4.36,ET,1737317420
342,las vegas,36.175,-115.1372,51.28,19,0,3.44,US,1737317400
343,keflavik,64.0049,-22.5624,36.03,93,75,4.61,IS,1737317422
344,nantucket,41.2835,-70.0995,42.91,70,100,9.22,US,1737317423
345,sebezh,56.2955,28.4654,37.78,84,100,9.44,RU,1737317424
346,marrakesh,31.6315,-8.0083,59.07,55,0,0.0,MA,1737317143
347,sinabang,2.4803,96.3801,79.02,84,100,2.24,ID,1737317428
348,kununurra,-15.7667,128.7333,76.98,94,93,4.61,AU,1737317429
349,sakakah,29.9697,40.2064,45.97,44,98,5.41,SA,1737317430
350,yuzhno-kurilsk,44.0306,145.8556,33.82,98,100,6.24,RU,1737317431
351,pampierstad,-27.7832,24.6877,81.63,32,84,3.53,ZA,1737317432
352,toliara,-23.35,43.6667,81.32,83,30,7.29,MG,1737317434
353,rio grande,-32.035,-52.0986,78.58,77,57,9.6,BR,1737317360
354,brokopondo,4.75,-55.1667,80.65,69,83,8.52,SR,1737317437
355,sao gabriel da cachoeira,-0.1303,-67.0892,86.54,57,100,6.89,BR,1737317439
356,carutapera,-1.195,-46.02,73.81,94,100,5.14,BR,1737317440
357,lander,42.833,-108.7307,5.97,78,75,0.0,US,1737317426
358,alvorada,-12.48,-49.1247,80.22,81,18,3.0,BR,1737317442
359,lilongwe,-13.9669,33.7873,68.79,92,100,1.79,MW,1737317443
360,six-fours-les-plages,43.0938,5.84,50.76,78,100,16.8,FR,1737317444
361,upata,8.0086,-62.3989,87.76,40,35,10.04,VE,1737317385
362,shiraoi,42.55,141.35,38.52,89,33,6.33,JP,1737317448
363,lodja,-3.4833,23.4333,71.67,83,100,1.66,CD,1737317449
364,concepcion del oro,24.6333,-101.4167,56.59,19,100,9.42,MX,1737317450
365,kayangel,8.0823,134.7173,82.63,80,100,14.56,PW,1737317451
366,antalaha,-14.9003,50.2788,75.04,90,100,3.4,MG,1737317452
367,howrah,22.5892,88.3103,62.6,77,0,4.61,IN,1737317453
368,chonchi,-42.6128,-73.8092,68.58,50,100,0.67,CL,1737317455
369,laojunmiao,39.8333,97.7333,29.5,16,89,6.8,CN,1737317233
370,berriane,32.8265,3.7669,49.8,44,0,6.8,DZ,1737317457
371,komsomolets,53.7453,62.0708,13.3,93,17,12.71,KZ,1737317458
372,puerto aysen,-45.4,-72.7,70.65,54,97,3.67,CL,1737317459
373,horasan,40.0458,42.1728,7.38,100,95,0.83,TR,1737317460
374,sofifi,0.7349,127.576,79.11,84,40,2.77,ID,1737317462
375,pervomayskoye,43.919,46.7102,37.18,84,100,14.43,RU,1737317463
376,bodden town,19.2833,-81.25,86.0,79,20,12.66,KY,1737317464
377,sambava,-14.2667,50.1667,77.18,86,100,2.57,MG,1737317465
378,vorkuta,67.5,64.0,-16.6,93,69,7.94,RU,1737317466
379,midvagur,62.0511,-7.1939,45.43,100,100,13.8,FO,1737317467
380,urrao,6.3152,-76.1342,68.86,70,59,2.57,CO,1737317367
381,rethymno,35.3647,24.4714,53.64,81,35,4.27,GR,1737317469
382,qianzhou,28.3167,109.7167,48.78,76,12,1.88,CN,1737317471
383,tabou,4.423,-7.3528,80.69,78,10,9.33,CI,1737317423
384,bonthe,7.5264,-12.505,79.18,75,81,8.63,SL,1737317474
385,gdov,58.7406,27.8122,33.15,95,37,10.67,RU,1737317475
386,sanandaj,35.3144,46.9923,32.86,70,4,4.99,IR,1737317476
387,nola,40.922,14.5329,53.38,86,58,4.03,IT,1737317477
388,ulladulla,-35.35,150.4667,57.72,79,43,3.49,AU,1737317478
389,phang nga,8.4509,98.5298,71.76,85,100,4.47,TH,1737317367
390,illizi,26.4833,8.4667,53.15,33,85,8.46,DZ,1737317480
391,egilsstadir,65.2653,-14.3948,31.6,96,100,15.55,IS,1737317481
392,al kharijah,25.4514,30.5464,64.0,23,64,9.24,EG,1737317482
393,nizao,18.25,-70.2,82.89,57,6,13.38,DO,1737317484
394,la'ie,21.6477,-157.9253,78.04,64,1,7.0,US,1737317485
395,berezovo,63.9381,65.0419,0.18,94,100,12.3,RU,1737317472
396,happy valley-goose bay,53.3168,-60.3315,35.91,80,75,6.91,CA,1737317488
397,mejit,10.2753,170.8646,80.29,78,57,23.15,MH,1737317490
398,sawakin,19.1059,37.3321,76.19,69,100,12.1,SD,1737317492
399,sinop,41.7711,34.8709,35.51,94,100,8.21,TR,1737317332
400,benghazi,32.1167,20.0667,63.32,55,2,8.08,LY,1737317494
401,tindouf,27.6711,-8.1474,56.28,24,0,4.97,DZ,1737317495
402,troitsko-pechorsk,62.7084,56.1964,14.07,93,100,8.1,RU,1737317496
403,pandan,14.0453,124.1694,75.49,90,100,2.86,PH,1737317497
404,marsabit,2.3284,37.9899,70.81,40,98,5.37,KE,1737317498
405,silat al harithiyah,32.5085,35.2275,51.82,81,9,3.51,PS,1737317499
406,el calafate,-50.3408,-72.2768,59.86,54,100,9.51,AR,1737317502
407,sokol,59.4617,40.1206,27.1,97,100,7.87,RU,1737317503
408,okahao,-17.885,15.0667,84.61,18,36,10.87,NA,1737317504
409,sao jose da coroa grande,-8.8978,-35.1478,81.09,74,100,10.4,BR,1737317349
410,ilomantsi,62.6716,30.9328,33.04,77,100,15.68,FI,1737317508
411,port elizabeth,-33.918,25.5701,69.31,92,0,5.01,ZA,1737317509
412,taoudenni,22.6783,-3.9836,63.9,17,0,10.71,ML,1737317510
413,howard springs,-12.497,131.047,78.71,100,55,4.76,AU,1737317511
414,mogadishu,2.0371,45.3438,75.94,80,16,21.65,SO,1737317512
415,barra do garcas,-15.89,-52.2567,81.64,71,17,5.55,BR,1737317257
416,lincoln,40.8,-96.667,12.88,43,0,7.0,US,1737317359
417,puerto baquerizo moreno,-0.9,-89.6,81.59,74,75,14.97,EC,1737317516
418,fortuna,40.5982,-124.1573,41.92,100,20,0.0,US,1737317518
419,zouerate,22.7187,-12.4521,63.1,36,0,8.37,MR,1737317519
420,roven'ky,48.0833,39.3776,30.47,92,100,10.85,UA,1737317520
421,amga,60.8953,131.9608,-19.12,100,96,3.02,RU,1737317521
422,tarawa,1.419,172.984,80.2,82,29,16.91,KI,1737317522
423,tutong,4.8,114.65,78.35,90,100,9.37,BN,1737317524
424,fort frances,48.5999,-93.4003,-10.95,60,75,6.91,CA,1737317525
425,les andelys,49.25,1.4167,34.92,88,18,2.68,FR,1737317526
426,lubang,13.8584,120.124,79.59,84,85,13.6,PH,1737317527
427,ambalavao,-21.8333,46.9333,67.19,93,88,4.07,MG,1737317528
428,dunedin,-45.8742,170.5036,61.81,69,68,3.0,NZ,1737317529
429,kolonia,50.9333,6.95,30.45,92,100,3.44,DE,1737317530
430,krasnoarmeysk,51.0239,45.6969,31.62,92,100,9.66,RU,1737317532
431,ust-nera,64.5667,143.2,-37.53,97,94,5.44,RU,1737317533
432,pangody,65.85,74.4859,-7.69,98,100,16.11,RU,1737317534
433,mumford,5.2618,-0.759,80.35,87,33,15.1,GH,1737317535
434,moquegua,-17.1956,-70.9353,75.16,35,100,12.97,PE,1737317536
435,nuku'alofa,-21.1333,-175.2,77.34,94,75,2.3,TO,1737317537
436,erenhot,43.6475,111.9767,19.78,57,11,10.31,CN,1737317538
437,lamu,-2.2717,40.902,77.58,85,33,15.77,KE,1737317540
438,harper,4.375,-7.7169,80.67,78,7,10.04,LR,1737317541
439,teodoro sampaio,-22.5325,-52.1675,88.25,53,100,6.49,BR,1737317316
440,balkanabat,39.5108,54.3671,43.61,79,99,5.39,TM,1737317543
441,port shepstone,-30.7414,30.455,75.54,92,3,3.44,ZA,1737317544
442,nishinoomote,30.7333,131.0,56.98,65,100,14.94,JP,1737317545
443,kingston,17.997,-76.7936,87.17,65,8,11.21,JM,1737317473
444,puerto escondido,15.85,-97.0667,83.21,64,8,6.73,MX,1737317548
445,birao,10.2849,22.7882,80.49,23,2,5.82,CF,1737317549
446,el nido,11.1858,119.3956,76.14,94,84,8.95,PH,1737317550
447,khorixas,-20.3667,14.9667,73.33,35,100,12.15,NA,1737317552
448,meadow lakes,61.6247,-149.6011,35.47,85,100,15.01,US,1737317553
449,mount gambier,-37.8333,140.7667,64.72,71,100,4.54,AU,1737317554
450,mirriah,13.7073,9.1501,77.43,17,32,6.91,NE,1737317557
451,ixtapa,20.7,-105.2,74.43,64,40,9.22,MX,1737317558
452,prince rupert,54.3161,-130.3201,35.44,59,100,2.24,CA,1737317559
453,basoda,23.85,77.9333,60.06,60,0,2.13,IN,1737317560
454,ta`u,-14.2336,-169.5144,81.72,76,10,6.71,AS,1737317561
455,port alfred,-33.5906,26.891,73.18,94,44,1.01,ZA,1737317562
456,orebro,59.2741,15.2066,37.58,87,75,6.91,SE,1737317563
457,droitwich,52.2667,-2.15,37.18,87,100,2.04,GB,1737317564
458,horta,38.5333,-28.6333,60.44,81,40,34.52,PT,1737317566
459,campamento,14.55,-86.65,83.46,48,67,5.73,HN,1737317567
460,torghay,49.6339,63.4981,32.31,98,100,11.48,KZ,1737317568
461,aral,40.5156,81.2636,26.44,44,100,6.85,CN,1737317569
462,murun-kuren,49.6342,100.1625,0.36,90,52,2.66,MN,1737317571
463,sitrah,26.1547,50.6206,62.01,64,0,8.84,BH,1737317572
464,cannonvale,-20.2833,148.7,81.79,79,100,8.48,AU,1737317574
465,gonabad,34.3529,58.6837,40.77,55,100,0.87,IR,1737317575
466,bikenibeu village,1.3673,173.1241,80.19,81,25,16.75,KI,1737317576
467,freetown,8.484,-13.2299,77.99,76,7,10.18,SL,1737317577
468,lagoa,39.05,-27.9833,58.48,75,83,36.33,PT,1737317578
469,matoury,4.8483,-52.3317,82.36,69,75,10.36,GF,1737317427
470,rio preto da eva,-2.6994,-59.6997,89.56,50,80,1.39,BR,1737317544
471,nelson bay,-32.7167,152.15,62.11,87,98,11.01,AU,1737317581
472,taber,49.8167,-112.1518,4.68,76,100,10.16,CA,1737317322
473,daru,-9.0763,143.2092,79.23,85,100,3.74,PG,1737317584
474,mandalgovi,45.7625,106.2708,13.41,70,71,10.45,MN,1737317586
475,nakonde,-9.3421,32.745,60.53,92,100,1.57,ZM,1737317587
476,gomez farias,23.05,-99.15,60.37,34,73,10.02,MX,1737317588
477,argo,37.6333,22.7333,49.46,66,91,4.14,GR,1737317589
478,san luis de la loma,17.2706,-100.8939,82.35,65,0,7.27,MX,1737317590
479,pedro ii,-4.4247,-41.4586,72.18,89,100,1.74,BR,1737317591
480,jiamusi,46.8333,130.35,-5.17,100,46,5.77,CN,1737317593
481,moundsville,39.9203,-80.7431,26.55,90,100,1.01,US,1737317594
482,ballina,-28.8667,153.5667,65.66,80,54,14.52,AU,1737317596
483,salida,37.7058,-121.0849,56.28,65,0,4.61,US,1737317597
484,alaghsas,17.0187,8.0168,78.1,13,92,3.8,NE,1737317598
485,zemio,5.0314,25.1361,78.06,45,79,3.13,CF,1737317600
486,dompu,-8.5356,118.4622,75.97,99,100,2.91,ID,1737317601
487,bamboo flat,11.7,92.7167,75.6,72,72,7.58,IN,1737317602
488,strathalbyn,-35.2667,138.9,73.53,69,100,4.76,AU,1737317603
489,taulaga,-11.0553,-171.0883,82.99,73,98,8.72,AS,1737317532
490,shimoda,34.6667,138.95,47.95,85,100,12.21,JP,1737317605
491,autlan de navarro,19.7667,-104.3667,87.4,19,5,8.01,MX,1737317607
492,kyshtovka,56.555,76.6271,7.3,94,60,12.39,RU,1737317608
493,conduaga,8.862,117.4893,78.06,87,100,9.28,PH,1737317611
494,camiri,-20.05,-63.5167,78.01,67,84,6.08,BO,1737317612
495,luderitz,-26.6481,15.1594,62.8,81,1,13.67,NA,1737317613
496,karratha,-20.7377,116.8463,83.16,83,100,29.48,AU,1737317614
497,colchani,-20.3,-66.9333,60.13,47,100,1.83,BO,1737317615
498,ulanhot,46.0833,122.0833,13.73,92,32,6.8,CN,1737317616
499,la passe,45.5549,-0.8967,38.59,80,90,9.28,FR,1737317618
500,soure,-0.7167,-48.5233,79.5,78,35,6.15,BR,1737317619
501,segamat,2.5148,102.8158,72.05,94,100,4.23,MY,1737317620
502,olinda,-8.0089,-34.8553,83.93,74,40,9.22,BR,1737317621
503,mahina,-17.5065,-149.489,85.77,70,0,10.36,PF,1737317622
504,hovd,48.0056,91.6419,6.21,78,15,4.09,MN,1737317623
505,birjand,32.8663,59.2211,35.82,76,76,8.01,IR,1737317351
506,sharm el-sheikh,27.8518,34.305,66.38,53,76,2.19,EG,1737317625
507,selfoss,63.9331,-20.9971,31.82,74,100,17.72,IS,1737317626
508,new plymouth,-39.0667,174.0833,62.31,100,100,5.06,NZ,1737317628
509,greenville,35.6127,-77.3663,56.14,99,100,9.22,US,1737317434
510,jaru,-10.4389,-62.4664,72.46,98,100,2.62,BR,1737317630
511,porto,41.1496,-8.611,51.31,93,75,19.57,PT,1737317631
512,carnarvon,-24.8667,113.6333,86.52,56,100,17.22,AU,1737317632
513,beya,53.0533,90.9139,23.77,77,100,11.3,RU,1737317634
514,chernyshevskiy,63.0128,112.4714,9.63,92,100,13.4,RU,1737317635
515,zavodskoy,43.4597,132.2922,22.59,63,14,4.47,RU,1737317636
516,krasnokamensk,50.0979,118.0369,3.85,98,100,1.95,RU,1737317637
517,sampit,-2.5333,112.95,73.18,99,100,1.72,ID,1737317638
518,petropavlovka,50.6114,105.3196,-2.4,94,44,3.2,RU,1737317640
519,crane,31.3974,-102.3501,32.76,25,0,5.57,US,1737317641
520,glace bay,46.1969,-59.957,46.96,97,100,13.0,CA,1737317592
521,twon-brass,4.3151,6.2418,81.57,74,100,12.46,NG,1737317643
522,saint david's,12.0333,-61.6667,79.27,77,19,12.82,GD,1737317644
523,stonehouse,51.75,-2.2833,38.21,93,100,2.62,GB,1737317646
524,hanzhong,33.0728,107.0303,45.79,51,100,2.01,CN,1737317647
525,linxia chengguanzhen,35.6003,103.2064,27.37,38,0,0.58,CN,1737317648
526,wenchang,30.904,118.4887,43.48,37,0,1.7,CN,1737317650
527,bhimunipatnam,17.8833,83.4333,67.51,74,0,5.01,IN,1737317375
528,alexandroupoli,40.8475,25.8744,37.22,81,0,0.0,GR,1737317652
529,middlesboro,36.6084,-83.7166,28.4,80,100,10.36,US,1737317531
530,el granada,37.5027,-122.4694,52.57,86,100,9.22,US,1737317654
531,guarapari,-20.6667,-40.4975,81.28,77,66,15.99,BR,1737317558
532,aksu,41.1231,80.2644,16.92,84,100,1.7,CN,1737317658
533,aliveri,38.4167,24.0333,51.42,77,48,6.17,GR,1737317659
534,vershino-darasunskiy,52.35,115.5167,2.7,98,100,3.22,RU,1737317660
535,vilyuysk,63.7553,121.6247,9.82,93,100,10.4,RU,1737317661
536,umm kaddadah,13.6017,26.6876,73.56,22,0,12.86,SD,1737317665
537,arraial do cabo,-22.9661,-42.0278,87.66,66,0,14.97,BR,1737317666
538,jeddah,21.5169,39.2192,75.06,69,0,11.5,SA,1737317667
539,atbasar,51.8,68.3333,27.46,95,100,12.35,KZ,1737317611
540,concordia,-31.393,-58.0209,76.78,83,75,9.22,AR,1737317492
541,usinsk,65.9939,57.5281,0.57,92,100,18.23,RU,1737317670
542,san carlos del zulia,9.0,-71.9135,90.27,48,0,7.67,VE,1737317671
543,vila franca do campo,37.7167,-25.4333,61.21,82,70,26.49,PT,1737317672
544,ponta delgada,37.7333,-25.6667,61.52,77,20,28.77,PT,1737317673
545,lefkada,38.8275,20.7019,49.98,87,40,4.61,GR,1737317674
546,knyaze-volkonskoye,48.4642,135.4567,-7.26,99,97,4.47,RU,1737317675
547,beitbridge,-22.2167,30.0,81.63,46,100,7.92,ZW,1737317677
548,nookat,40.2671,72.6207,27.9,64,56,6.04,KG,1737317678
549,yatou,37.15,122.3833,30.69,75,0,6.22,CN,1737317679
550,djambala,-2.5447,14.7533,66.97,87,100,3.0,CG,1737317680
551,sake,-1.5736,29.045,62.67,88,87,1.79,CD,1737317681
552,minas de marcona,-15.2119,-75.1103,68.99,62,100,19.13,PE,1737317682
553,tazovsky,67.4667,78.7,-20.33,94,100,9.91,RU,1737317683
554,papanasam,10.9333,79.2833,75.4,96,98,9.37,IN,1737317684
555,parabel',58.6978,81.4825,9.12,89,98,13.31,RU,1737317686
556,adam,22.3756,57.5233,61.41,38,0,8.1,OM,1737317442
557,bubaque,11.2833,-15.8333,77.36,69,45,13.13,GW,1737317688
558,port douglas,-16.4833,145.4667,80.01,82,100,7.02,AU,1737317690
559,vila velha,-20.3297,-40.2925,84.15,72,0,17.27,BR,1737317691
560,caibarien,22.5206,-79.4669,84.47,58,12,2.95,CU,1737317692
561,narrabri,-30.3167,149.7833,58.51,76,41,3.0,AU,1737317693
562,saurimo,-9.6608,20.3916,64.42,93,79,2.57,AO,1737317694
563,zhangye,38.9342,100.4517,26.08,39,4,9.28,CN,1737317695
564,al ghayzah,16.2079,52.176,68.97,61,4,3.13,YE,1737317697
565,qamdo,31.1667,97.2333,24.19,32,0,2.89,CN,1737317698
566,prado,-17.3411,-39.2208,80.42,74,19,10.49,BR,1737317699
567,piacabucu,-10.4056,-36.4344,81.14,74,100,10.27,BR,1737317700
568,jatoba,-9.1831,-38.2689,88.3,42,84,0.87,BR,1737317701
569,xining,36.6167,101.7667,21.16,58,0,2.73,CN,1737317542
570,telimele,10.9167,-13.3333,78.3,25,2,3.74,GN,1737317703
571,katsuren-haebaru,26.3369,127.8719,64.42,87,100,8.05,JP,1737317704
572,gubat,12.9206,124.1231,78.15,89,100,5.3,PH,1737317705
573,las khorey,11.1595,48.1967,71.6,64,79,7.05,SO,1737317706
574,waycross,31.2136,-82.354,60.85,67,75,11.5,US,1737317707
575,kabansk,52.0486,106.6528,12.15,91,100,4.03,RU,1737317709
576,nakamura,32.9833,132.9333,40.82,98,25,4.29,JP,1737317710
577,remire-montjoly,4.9167,-52.2667,82.44,69,75,10.36,GF,1737317711
578,san fernando de apure,7.8878,-67.4724,90.45,43,79,10.51,VE,1737317712
579,morehead city,34.7229,-76.726,59.04,91,100,21.85,US,1737317485
580,richards bay,-28.783,32.0377,77.14,92,32,11.45,ZA,1737317515
581,kismayo,-0.3582,42.5454,77.22,83,30,15.7,SO,1737317715
582,gaalkacyo,6.7697,47.4308,70.02,72,50,17.13,SO,1737317716
583,buchanan,5.8808,-10.0467,80.06,78,6,7.58,LR,1737317718
584,vasudevanallur,9.2333,77.4167,72.43,94,100,3.22,IN,1737317719
585,yanykurgan,43.915,67.2481,31.96,82,100,10.96,KZ,1737317721
586,ukholovo,53.7929,40.4892,28.49,90,9,10.27,RU,1737317722
587,lospalos,-8.5186,127.0025,71.96,99,100,2.73,TL,1737317723
588,hassi messaoud,31.6804,6.0729,51.66,62,0,2.3,DZ,1737317724
589,nogliki,51.8333,143.1667,5.63,96,100,5.17,RU,1737317725
